[
  {
    "region": "Aberdeenshire",
    "name": "Glacks of Balloch",
    "lat": 57.52858,
    "lng": -2.87166
  },
  {
    "region": "Aberdeenshire",
    "name": "Glackhead",
    "lat": 57.33893,
    "lng": -2.92544
  },
  {
    "region": "Aberdeenshire",
    "name": "Lecht Pass / The Lecht",
    "lat": 57.20069,
    "lng": -3.24744
  },
  {
    "region": "Aberdeenshire",
    "name": "Cairnwell Pass",
    "lat": 56.88082,
    "lng": -3.41072
  },
  {
    "region": "Aberdeenshire",
    "name": "The Slug / Slochd / Pass of the Mountains",
    "lat": 57.01535,
    "lng": -2.37287
  },
  {
    "region": "Aberdeenshire",
    "name": "Corsedardar Hill / Corse Dardar",
    "lat": 57.0351,
    "lng": -2.66836
  },
  {
    "region": "Aberdeenshire",
    "name": "Pass of Ballater",
    "lat": 57.05967,
    "lng": -3.04548
  },
  {
    "region": "Aberdeenshire",
    "name": "Cairn O’ Mounth (or Mount) Pass",
    "lat": 56.91671,
    "lng": -2.57732
  },
  {
    "region": "Angus",
    "name": "An Lairig",
    "lat": 56.56327,
    "lng": -2.97648
  },
  {
    "region": "Angus",
    "name": "Glack of Newtyle",
    "lat": 56.54927,
    "lng": -3.13432
  },
  {
    "region": "Argyle and Bute Mainland",
    "name": "Bealach a’ Chaisteil",
    "lat": 55.92309,
    "lng": -5.21372
  },
  {
    "region": "Argyle and Bute Mainland",
    "name": "Bealach Mòr / Pass of Kintraw",
    "lat": 56.1846,
    "lng": -5.48325
  },
  {
    "region": "Argyle and Bute Mainland",
    "name": "Bealach Salach nan Airm",
    "lat": 56.25369,
    "lng": -5.40986
  },
  {
    "region": "Argyle and Bute Mainland",
    "name": "The Summit / An Lairig",
    "lat": 56.42319,
    "lng": -5.43687
  },
  {
    "region": "Argyle and Bute Mainland",
    "name": "Slochd an t-Seipine",
    "lat": 56.45978,
    "lng": -4.71393
  },
  {
    "region": "Argyle and Bute Mainland",
    "name": "Bealach an Easain Duibh",
    "lat": 56.23775,
    "lng": -4.85323
  },
  {
    "region": "Argyle and Bute Mainland",
    "name": "Rest and Be Thankful",
    "lat": 56.22629,
    "lng": -4.85632
  },
  {
    "region": "Argyle and Bute Mainland",
    "name": "Pass of Melfort",
    "lat": 56.28183,
    "lng": -5.4849
  },
  {
    "region": "Argyle and Bute Mainland",
    "name": "Pass of Brander / Pass of Awe / Cumhang a’ Bhrannraidh",
    "lat": 56.40442,
    "lng": -5.15738
  },
  {
    "region": "Argyle and Bute Mainland",
    "name": "Pass of Glencroe",
    "lat": 56.20001,
    "lng": -4.81971
  },
  {
    "region": "Ayrshire",
    "name": "The String / An t-Sreang",
    "lat": 55.57425,
    "lng": -5.20944
  },
  {
    "region": "Ayrshire",
    "name": "Kennedy’s Pass",
    "lat": 55.19731,
    "lng": -4.91134
  },
  {
    "region": "Borders",
    "name": "Paddock Slack",
    "lat": 55.54581,
    "lng": -3.09061
  },
  {
    "region": "Borders",
    "name": "Redeswire / Carter Bar",
    "lat": 55.35434,
    "lng": -2.47764
  },
  {
    "region": "Borders",
    "name": "Hass",
    "lat": 55.38324,
    "lng": -2.49683
  },
  {
    "region": "Borders",
    "name": "Manor Sware / The Sware",
    "lat": 55.64596,
    "lng": -3.2172
  },
  {
    "region": "Borders",
    "name": "Billhope Hass",
    "lat": 55.27089,
    "lng": -2.88588
  },
  {
    "region": "Borders",
    "name": "Whitrope Hass",
    "lat": 55.30667,
    "lng": -2.73469
  },
  {
    "region": "Borders",
    "name": "Note o’ the Gate",
    "lat": 55.31904,
    "lng": -2.64951
  },
  {
    "region": "Borders",
    "name": "Windy House",
    "lat": 55.46962,
    "lng": -3.14763
  },
  {
    "region": "Borders",
    "name": "Paddock Slack",
    "lat": 55.54581,
    "lng": -3.09061
  },
  {
    "region": "Borders",
    "name": "Dewar Swyre (or Swire)",
    "lat": 55.70955,
    "lng": -3.03786
  },
  {
    "region": "Borders",
    "name": "Birkhill Pass / Pass of Moffatdale",
    "lat": 55.4315,
    "lng": -3.26237
  },
  {
    "region": "Dumfries and Galloway",
    "name": "Ballochagunnon",
    "lat": 54.73489,
    "lng": -4.95298
  },
  {
    "region": "Dumfries and Galloway",
    "name": "Corse of Slakes",
    "lat": 54.89871,
    "lng": -4.29917
  },
  {
    "region": "Dumfries and Galloway",
    "name": "Corse Gate",
    "lat": 55.03599,
    "lng": -3.91061
  },
  {
    "region": "Dumfries and Galloway",
    "name": "Swyre / Swair",
    "lat": 55.15008,
    "lng": -3.75828
  },
  {
    "region": "Dumfries and Galloway",
    "name": "Mennock Hass",
    "lat": 55.39131,
    "lng": -3.78111
  },
  {
    "region": "Dumfries and Galloway",
    "name": "Fenton Yet",
    "lat": 55.22719,
    "lng": -3.26871
  },
  {
    "region": "Dumfries and Galloway",
    "name": "Charlie’s Moss",
    "lat": 55.16151,
    "lng": -2.96721
  },
  {
    "region": "Dumfries and Galloway",
    "name": "Sorbie Hass",
    "lat": 55.19558,
    "lng": -3.00598
  },
  {
    "region": "Dumfries and Galloway",
    "name": "Billhope Hass",
    "lat": 55.27089,
    "lng": -2.88588
  },
  {
    "region": "Dumfries and Galloway",
    "name": "Dalveen Pass",
    "lat": 55.34998,
    "lng": -3.73241
  },
  {
    "region": "Dumfries and Galloway",
    "name": "Hass",
    "lat": 55.19612,
    "lng": -4.05834
  },
  {
    "region": "Dumfries and Galloway",
    "name": "Mennock Pass",
    "lat": 55.37439,
    "lng": -3.81817
  },
  {
    "region": "Fife",
    "name": "Macduff’s Cross",
    "lat": 56.33626,
    "lng": -3.24815
  },
  {
    "region": "Inverness (Islands)",
    "name": "Bealach nan Carn",
    "lat": 57.09711,
    "lng": -5.9335
  },
  {
    "region": "Inverness (Islands)",
    "name": "Bealach Udal",
    "lat": 57.22193,
    "lng": -5.72306
  },
  {
    "region": "Inverness (Islands)",
    "name": "Ben Totaig – Beinn na Crèiche",
    "lat": 57.44844,
    "lng": -6.68155
  },
  {
    "region": "Inverness (Mainland)",
    "name": "Beinn Chlaonleud – Meall a’ Choire Bheithich",
    "lat": 56.63267,
    "lng": -5.64951
  },
  {
    "region": "Inverness (Mainland)",
    "name": "Doire nan Gad",
    "lat": 56.65392,
    "lng": -5.6357
  },
  {
    "region": "Inverness (Mainland)",
    "name": "Bealach Caràch",
    "lat": 56.80898,
    "lng": -5.81927
  },
  {
    "region": "Inverness (Mainland)",
    "name": "Mìle Dorcha / Black Mile Pass",
    "lat": 56.9541,
    "lng": -4.99434
  },
  {
    "region": "Inverness (Mainland)",
    "name": "Beum a’ Chlaidheimh",
    "lat": 57.35686,
    "lng": -3.76773
  },
  {
    "region": "Inverness (Mainland)",
    "name": "An Slochd Beag",
    "lat": 57.29051,
    "lng": -3.90888
  },
  {
    "region": "Inverness (Mainland)",
    "name": "Slochd Mòr (Slochd Summit)",
    "lat": 57.30422,
    "lng": -3.93082
  },
  {
    "region": "Inverness (Mainland)",
    "name": "Pass of Inverfarigaig",
    "lat": 57.27765,
    "lng": -4.44769
  },
  {
    "region": "Inverness (Mainland)",
    "name": "Pass of Glencoe",
    "lat": 56.66562,
    "lng": -4.98092
  },
  {
    "region": "Lanarkshire",
    "name": "Lyonsidehass",
    "lat": 55.58624,
    "lng": -3.74564
  },
  {
    "region": "Lanarkshire",
    "name": "Thief Slack Hass",
    "lat": 55.4164,
    "lng": -3.74625
  },
  {
    "region": "Lanarkshire",
    "name": "Windygates",
    "lat": 55.71756,
    "lng": -3.5871
  },
  {
    "region": "Lanarkshire",
    "name": "Beattock Pass",
    "lat": 55.42212,
    "lng": -3.59275
  },
  {
    "region": "Lothians and Edinburgh",
    "name": "The Hawse",
    "lat": 55.94278,
    "lng": -3.1661
  },
  {
    "region": "Lothians and Edinburgh",
    "name": "Carcant Nick",
    "lat": 55.77648,
    "lng": -3.03844
  },
  {
    "region": "Lothians and Edinburgh",
    "name": "Chapman’s Slack",
    "lat": 55.85741,
    "lng": -2.60557
  },
  {
    "region": "Moray",
    "name": "Glacks of Balloch",
    "lat": 57.39336,
    "lng": -3.076
  },
  {
    "region": "Moray",
    "name": "Lecht Pass / The Lecht",
    "lat": 57.20069,
    "lng": -3.24744
  },
  {
    "region": "Na H-Eileanan Siar (Outer Hebrides)",
    "name": "An Lairig",
    "lat": 57.84633,
    "lng": -6.8251
  },
  {
    "region": "Na H-Eileanan Siar (Outer Hebrides)",
    "name": "Bealach na Ciste",
    "lat": 57.94514,
    "lng": -6.80062
  },
  {
    "region": "Orkney",
    "name": "Chair of Lyde",
    "lat": 59.04989,
    "lng": -3.12008
  },
  {
    "region": "Perth and Kinross",
    "name": "Am Beàrn / Barry Hill",
    "lat": 56.63844,
    "lng": -3.20749
  },
  {
    "region": "Perth and Kinross",
    "name": "Corse",
    "lat": 56.39734,
    "lng": -3.3876
  },
  {
    "region": "Perth and Kinross",
    "name": "Cairnwell Pass",
    "lat": 56.88082,
    "lng": -3.41072
  },
  {
    "region": "Perth and Kinross",
    "name": "Pass of Drumochter",
    "lat": 56.85125,
    "lng": -4.24415
  },
  {
    "region": "Perth and Kinross",
    "name": "Pass of Killiecrankie",
    "lat": 56.73765,
    "lng": -3.76992
  },
  {
    "region": "Perth and Kinross",
    "name": "Pass of Birnam",
    "lat": 56.53551,
    "lng": -3.54123
  },
  {
    "region": "Perth and Kinross",
    "name": "King’s Pass",
    "lat": 56.56915,
    "lng": -3.61288
  },
  {
    "region": "Perth and Kinross",
    "name": "Pass of Keltney",
    "lat": 56.62217,
    "lng": -4.00145
  },
  {
    "region": "Perth and Kinross",
    "name": "Pass of Lyon",
    "lat": 56.60301,
    "lng": -4.07762
  },
  {
    "region": "Perth and Kinross",
    "name": "Pass of Chesthill",
    "lat": 56.59961,
    "lng": -4.12209
  },
  {
    "region": "Ross and Cromarty",
    "name": "An Ruadh-Bruach",
    "lat": 57.47082,
    "lng": -5.58652
  },
  {
    "region": "Ross and Cromarty",
    "name": "Bealach na Gaoithe",
    "lat": 57.56996,
    "lng": -5.6396
  },
  {
    "region": "Ross and Cromarty",
    "name": "An Cumhann",
    "lat": 57.41207,
    "lng": -5.70176
  },
  {
    "region": "Ross and Cromarty",
    "name": "Bealach an Fhuarain",
    "lat": 57.74031,
    "lng": -5.64793
  },
  {
    "region": "Ross and Cromarty",
    "name": "Cadha Beag",
    "lat": 57.85306,
    "lng": -5.47397
  },
  {
    "region": "Ross and Cromarty",
    "name": "Cadha Mòr",
    "lat": 57.8365,
    "lng": -4.27206
  },
  {
    "region": "Ross and Cromarty",
    "name": "Cadh’ a’ Bhuic",
    "lat": 57.69278,
    "lng": -5.70679
  },
  {
    "region": "Ross and Cromarty",
    "name": "Bealach na Gaoithe",
    "lat": 57.56996,
    "lng": -5.6396
  },
  {
    "region": "Ross and Cromarty",
    "name": "Bealach na Bà / Bealach nam Bó",
    "lat": 57.41798,
    "lng": -5.70706
  },
  {
    "region": "Ross and Cromarty",
    "name": "Pass of Kerrysdale / Gleann a’ Bhaile Dheirg",
    "lat": 57.70542,
    "lng": -5.67194
  },
  {
    "region": "Ross and Cromarty",
    "name": "Pass of Glen Shiel",
    "lat": 57.1665,
    "lng": -5.31832
  },
  {
    "region": "Shetland",
    "name": "Scord of Scalloway / Scord o Scallowa",
    "lat": 60.14034,
    "lng": -1.25605
  },
  {
    "region": "Shetland",
    "name": "Scord of Sound",
    "lat": 60.23687,
    "lng": -1.32276
  },
  {
    "region": "Shetland",
    "name": "Lamba Scord",
    "lat": 60.27769,
    "lng": -1.26532
  },
  {
    "region": "Shetland",
    "name": "Whilmini Scord",
    "lat": 60.30463,
    "lng": -1.14708
  },
  {
    "region": "Shetland",
    "name": "Setter Scord",
    "lat": 60.34319,
    "lng": -1.29774
  },
  {
    "region": "Shetland",
    "name": "Scord of Brouster",
    "lat": 60.24677,
    "lng": -1.5407
  },
  {
    "region": "Stirling",
    "name": "Slochd an t-Seipine",
    "lat": 56.45978,
    "lng": -4.71393
  },
  {
    "region": "Stirling",
    "name": "Lairig Cheile / Pass of Glenogle",
    "lat": 56.4207,
    "lng": -4.33499
  },
  {
    "region": "Stirling",
    "name": "Ballengeich Pass",
    "lat": 56.12453,
    "lng": -3.94702
  },
  {
    "region": "Stirling",
    "name": "Pass of Leny",
    "lat": 56.25088,
    "lng": -4.27386
  },
  {
    "region": "Stirling",
    "name": "Duke’s Pass / Dukes Pass / Srath Buidhe",
    "lat": 56.20294,
    "lng": -4.39023
  },
  {
    "region": "Stirling",
    "name": "Pass of (the) Trossachs",
    "lat": 56.23033,
    "lng": -4.42176
  },
  {
    "region": "Stirling",
    "name": "Pass of Aberfoyle / Pass of Aberfoil",
    "lat": 56.18347,
    "lng": -4.41909
  },
  {
    "region": "Stirling",
    "name": "Pass of Balmaha",
    "lat": 56.08558,
    "lng": -4.54529
  },
  {
    "region": "Sutherland",
    "name": "Bealach Strome",
    "lat": 58.26808,
    "lng": -5.05262
  },
  {
    "region": "Sutherland",
    "name": "Am Bealach",
    "lat": 58.50919,
    "lng": -3.89612
  },
  {
    "region": "Sutherland",
    "name": "Bealach na Teangaidh",
    "lat": 58.26316,
    "lng": -4.79
  }
]
